[
  {
    "name": "A",
    "numberPlate": "A",
    "image": "/images/A.jpg",
    "longitude": 75.3563392,
    "latitude": 29.5191977,
    "rate": "5"
  },
  {
    "name": "A",
    "numberPlate": "A",
    "image": "/images/A.jpg",
    "longitude": 75.3563392,
    "latitude": 29.5191977,
    "rate": "5"
  },
  {
    "name": "A",
    "numberPlate": "A",
    "image": "/images/A.jpg",
    "longitude": 75.3563392,
    "latitude": 29.5191977,
    "rate": "5"
  },
  {
    "name": "A",
    "numberPlate": "A",
    "image": "/images/A.jpg",
    "longitude": 75.3563392,
    "latitude": 29.5191977,
    "rate": "5"
  },
  {
    "name": "Aa",
    "numberPlate": "BB",
    "image": "/images/BB.jpg",
    "longitude": 75.3545174,
    "latitude": 29.5083605,
    "rate": "8"
  },
  {
    "name": "Hh",
    "numberPlate": "JJ",
    "image": "/images/JJ.jpg",
    "longitude": 75.3574322,
    "latitude": 29.5189657,
    "rate": "30"
  },
  {
    "name": "Iiiu",
    "numberPlate": "BBBBB",
    "image": "/images/BBBBB.jpg",
    "longitude": 75.3574322,
    "latitude": 29.5189657,
    "rate": "36"
  },
  {
    "name": "Ggg",
    "numberPlate": "HGHGGGH",
    "image": "/images/HGHGGGH.jpg",
    "longitude": 75.3534887,
    "latitude": 29.5081963,
    "rate": "85",
    "phoneNumber": "+919992206916"
  },
  {
    "name": "Tytymmmm",
    "numberPlate": "TYTY",
    "image": "/images/TYTY.jpg",
    "longitude": 75.3574322,
    "latitude": 29.5189657,
    "rate": "254"
  },
  {
    "phoneNumber": "+919992206916"
  },
  {
    "phoneNumber": "+919992206916",
    "name": "Gggg",
    "numberPlate": "ASD",
    "image": "/images/ASD.jpg",
    "longitude": 75.3563392,
    "latitude": 29.5191977,
    "rate": "980"
  },
  {
    "phoneNumber": "+919992206916",
    "name": "Yht",
    "numberPlate": "ASDA",
    "image": "/images/ASDA.jpg",
    "longitude": 75.3563392,
    "latitude": 29.5191977,
    "rate": "652"
  },
  {
    "phoneNumber": "+917355883559"
  },
  {
    "phoneNumber": "+919992206916"
  },
  {
    "phoneNumber": "+919992206916"
  },
  {
    "name": "Aaa",
    "numberPlate": "SSS",
    "image": "/images/SSS.jpg",
    "longitude": 75.3535501,
    "latitude": 29.5081839,
    "rate": "87"
  },
  {
    "phoneNumber": "+919992206916"
  },
  {
    "name": "Ggg",
    "numberPlate": "BHH",
    "image": "/images/BHH.jpg",
    "longitude": 75.3501451,
    "latitude": 29.5149594,
    "rate": "96"
  },
  {
    "phoneNumber": "+919992206916"
  },
  {
    "phoneNumber": "+919992206916"
  },
  {
    "phoneNumber": "+919992206916",
    "name": "Hyg",
    "numberPlate": "LKH",
    "image": "/images/LKH.jpg",
    "longitude": 75.3537014,
    "latitude": 29.5082516,
    "rate": "32"
  },
  {
    "phoneNumber": "+919992206916"
  },
  {
    "phoneNumber": "+919992206916"
  },
  {
    "phoneNumber": "+919992206916"
  },
  {
    "phoneNumber": "+919992206916"
  },
  {
    "phoneNumber": "+919992206916"
  },
  {
    "phoneNumber": "+919992206916"
  },
  {
    "phoneNumber": "+919992206916"
  },
  {
    "phoneNumber": "+919992206916"
  },
  {
    "phoneNumber": "+919992206916"
  },
  {
    "phoneNumber": "+919992206916"
  },
  {
    "phoneNumber": "+919992206916"
  },
  {
    "phoneNumber": "+919992206916"
  },
  {
    "phoneNumber": "+919992206916"
  },
  {
    "phoneNumber": "+919992206916",
    "name": "Yyyy",
    "numberPlate": "YYYY",
    "image": "/images/YYYY.jpg",
    "longitude": 75.35306,
    "latitude": 29.5089061,
    "rate": "36"
  },
  {
    "phoneNumber": "+919992206916"
  },
  {
    "phoneNumber": "+919992206916"
  },
  {
    "phoneNumber": "+919992206916"
  },
  {
    "phoneNumber": "+919992206916"
  },
  {
    "phoneNumber": "+919992206916"
  },
  {
    "phoneNumber": "+919992206916",
    "name": "Ooooo",
    "numberPlate": "OOOOO",
    "image": "/images/OOOOO.jpg",
    "longitude": 75.3535237,
    "latitude": 29.5082203,
    "rate": "69"
  }
]
